City_ID,City,Lat,Lng,Max Temp,Humidity,Cloudiness,Wind Speed,Country,Date
0,general toshevo,43.7,28.0333,21.74,76,0,3.39,BG,1719256589
1,mammoth lakes,37.6485,-118.9721,26.4,29,0,5.14,US,1719256549
2,monte alegre,-2.0078,-54.0692,30.42,57,94,1.03,BR,1719256590
3,deland,29.0283,-81.3031,36.09,52,40,1.54,US,1719256590
4,hamilton,39.1834,-84.5333,31.39,46,40,2.57,US,1719256590
5,port elizabeth,-33.918,25.5701,17.28,87,75,6.69,ZA,1719256591
6,santa cruz,-17.8,-63.1667,22.7,83,100,6.69,BO,1719256486
7,margaret river,-33.95,115.0667,8.49,73,0,2.91,AU,1719256591
8,grytviken,-54.2811,-36.5092,-9.81,76,60,7.5,GS,1719256591
9,khilok,51.3674,110.4676,15.24,73,100,1.15,RU,1719256592
10,hami,42.8,93.45,32.44,10,0,3.15,CN,1719256592
11,san jose de jachal,-30.2406,-68.7469,7.86,40,4,3.8,AR,1719256592
12,constantia,44.1833,28.65,22.61,84,1,3.67,RO,1719256592
13,island harbour,50.724,-1.2758,22.02,74,7,0.45,GB,1719256593
14,petropavlovsk-kamchatsky,53.0452,158.6483,6.33,93,100,1.0,RU,1719256593
15,edinburgh of the seven seas,-37.0676,-12.3116,16.07,78,73,14.83,SH,1719256593
16,bandar lampung,-5.4254,105.258,23.54,96,100,1.27,ID,1719256594
17,adamstown,-25.066,-130.1015,22.69,84,62,8.2,PN,1719256594
18,machico,32.7,-16.7667,22.62,81,40,7.72,PT,1719256594
19,broken hill,-31.95,141.4333,7.88,58,79,4.25,AU,1719256595
20,ivdel',60.6911,60.4206,16.27,95,1,0.96,RU,1719256595
21,shizuishan,39.2333,106.7694,21.23,33,0,2.48,CN,1719256595
22,port mathurin,-19.6833,63.4167,23.31,76,27,10.87,MU,1719256596
23,likiep,9.8251,169.3107,28.28,75,100,9.21,MH,1719256596
24,georgetown,5.4112,100.3354,26.97,80,20,2.06,MY,1719256540
25,port-aux-francais,-49.35,70.2167,1.24,67,45,2.56,TF,1719256596
26,chuzhou,32.3219,118.2978,21.84,95,100,1.8,CN,1719256596
27,toliara,-23.35,43.6667,22.62,56,4,7.87,MG,1719256597
28,west island,-12.1568,96.8225,26.99,78,40,4.12,CC,1719256597
29,yeppoon,-23.1333,150.7333,12.88,82,74,3.77,AU,1719256597
30,portland,45.5234,-122.6762,22.7,55,20,5.14,US,1719256354
31,college,64.8569,-147.8028,19.18,52,75,2.06,US,1719256385
32,albany,42.6001,-73.9662,19.36,82,100,7.55,US,1719256598
33,waitangi,-43.9535,-176.5597,10.46,75,32,8.91,NZ,1719256598
34,san ignacio,17.1561,-89.0714,32.08,66,40,2.06,BZ,1719256599
35,yellowknife,62.456,-114.3525,15.23,52,75,7.72,CA,1719256599
36,papatowai,-46.5619,169.4708,9.5,93,95,4.86,NZ,1719256599
37,invercargill,-46.4,168.35,4.21,97,97,1.71,NZ,1719256600
38,zouerate,22.7187,-12.4521,36.45,13,0,5.77,MR,1719256600
39,colonia,50.9333,6.95,25.36,64,0,1.03,DE,1719256600
40,wailua homesteads,22.0669,-159.378,27.24,88,100,7.72,US,1719256600
41,coquimbo,-29.9533,-71.3436,14.85,72,20,4.12,CL,1719256601
42,ascension,30.2169,-90.9001,35.06,61,0,3.09,US,1719256601
43,thompson,55.7435,-97.8558,18.09,88,75,3.6,CA,1719256531
44,ar rutbah,33.0381,40.2848,31.13,18,0,3.59,IQ,1719256601
45,nova vicosa,-17.8919,-39.3719,26.13,69,0,2.56,BR,1719256602
46,puerto natales,-51.7236,-72.4875,-2.75,80,75,1.54,CL,1719256602
47,vennesla,58.2694,7.9741,20.97,59,0,2.57,NO,1719256602
48,hermanus,-34.4187,19.2345,13.78,82,22,2.58,ZA,1719256602
49,olonkinbyen,70.9221,-8.7187,1.71,99,100,4.59,SJ,1719256603
50,iskateley,67.6803,53.1512,7.79,95,100,9.67,RU,1719256603
51,el granada,37.5027,-122.4694,32.7,65,20,5.66,US,1719256603
52,sawakin,19.1059,37.3321,34.42,30,29,5.23,SD,1719256603
53,acarau,-2.8856,-40.12,28.34,70,90,5.55,BR,1719256604
54,lihue,21.9789,-159.3672,27.58,84,100,7.72,US,1719256101
55,hadibu,12.65,54.0333,27.25,74,100,9.66,YE,1719256604
56,blackmans bay,-43.0167,147.3167,4.74,92,100,0.45,AU,1719256604
57,greenville,35.6127,-77.3663,32.02,65,100,3.6,US,1719256605
58,avarua,-21.2078,-159.775,21.03,68,100,2.06,CK,1719256605
59,san luis de la loma,17.2706,-100.8939,29.02,72,99,3.67,MX,1719256605
60,usinsk,65.9939,57.5281,13.39,90,100,7.25,RU,1719256606
61,rongelap,11.1635,166.8941,28.24,76,88,9.11,MH,1719256606
62,ribeira grande,38.5167,-28.7,21.22,78,75,8.23,PT,1719256606
63,puerto ayora,-0.7393,-90.3518,25.98,92,89,0.45,EC,1719256607
64,anadyr,64.75,177.4833,7.28,75,40,7.0,RU,1719256607
65,tura,25.5198,90.2201,25.14,94,100,2.38,IN,1719256607
66,isafjordur,66.0755,-23.124,11.02,62,75,1.54,IS,1719256608
67,hawaiian paradise park,19.5933,-154.9731,27.07,73,40,3.09,US,1719256608
68,gufeng,26.9083,118.9819,20.71,99,94,1.46,CN,1719256608
69,qaqortoq,60.7167,-46.0333,3.05,85,48,3.09,GL,1719256608
70,bredasdorp,-34.5322,20.0403,13.69,83,93,1.63,ZA,1719256609
71,tanjung pinang,0.9167,104.45,28.02,84,75,2.62,ID,1719256609
72,road town,18.4167,-64.6167,32.05,89,40,6.17,VG,1719256609
73,zhangjiajie,29.1294,110.4783,21.79,96,100,1.25,CN,1719256609
74,lethbridge,49.7,-112.8186,23.27,27,20,5.66,CA,1719256325
75,rio grande,-32.035,-52.0986,14.06,69,92,5.69,BR,1719256610
76,pajara,28.3504,-14.1076,21.73,76,41,6.48,ES,1719256610
77,khandyga,62.6667,135.6,14.78,79,46,1.02,RU,1719256611
78,tiksi,71.6872,128.8694,6.83,69,100,1.73,RU,1719256611
79,port alfred,-33.5906,26.891,16.21,97,33,0.89,ZA,1719256611
80,jayrud,33.8074,36.7404,27.25,29,0,0.94,SY,1719256611
81,ushuaia,-54.8,-68.3,-0.19,55,0,1.54,AR,1719256612
82,el abiodh sidi cheikh,32.893,0.5484,28.9,25,100,7.63,DZ,1719256612
83,abeche,13.8292,20.8324,29.22,50,100,7.44,TD,1719256612
84,piti village,13.4626,144.6933,28.03,88,20,3.6,GU,1719256613
85,aykhal,66.0,111.5,16.63,56,14,5.23,RU,1719256613
86,guiuan,11.0333,125.7247,27.57,84,100,5.25,PH,1719256613
87,iqaluit,63.7506,-68.5145,5.85,70,75,4.12,CA,1719256613
88,al jawf,29.5,38.75,31.81,19,0,3.42,SA,1719256614
89,malkapur,20.8833,76.2,32.01,63,94,1.02,IN,1719256614
90,udachny,66.4167,112.4,18.39,50,64,5.29,RU,1719256614
91,chrysoupolis,40.9856,24.6939,27.16,78,40,0.0,GR,1719256615
92,holualoa,19.6228,-155.9522,24.91,92,20,3.6,US,1719256531
93,nikolayevsk-on-amure,53.1406,140.73,6.99,90,100,1.57,RU,1719256615
94,kembe,4.6228,21.8865,24.66,71,50,1.52,CF,1719256615
95,cabo san lucas,22.8909,-109.9124,32.56,53,0,5.14,MX,1719256030
96,chonchi,-42.6128,-73.8092,10.07,76,25,0.78,CL,1719256616
97,palu,-0.8917,119.8707,23.55,96,60,1.65,ID,1719256616
98,westport,41.1415,-73.3579,26.55,52,100,7.2,US,1719256540
99,st. john's,47.5649,-52.7093,17.93,97,100,9.26,CA,1719256617
100,machali,-34.1833,-70.6667,8.6,71,75,4.63,CL,1719256617
101,fallon,39.4735,-118.7774,33.84,25,20,2.57,US,1719256504
102,kiunga,-6.1219,141.2906,23.78,100,100,0.69,PG,1719256617
103,kodiak,57.79,-152.4072,11.73,94,100,3.09,US,1719256618
104,saldanha,-33.0117,17.9442,12.03,79,0,8.09,ZA,1719256618
105,kuta,-8.7233,115.1723,25.97,88,40,4.63,ID,1719256618
106,beyneu,45.3167,55.2,26.13,29,37,2.78,KZ,1719256618
107,beau vallon,-20.4189,57.6953,23.13,83,75,5.14,MU,1719256619
108,nyaunglebin,17.95,96.7333,25.72,93,100,2.13,MM,1719256619
109,afaahiti,-17.75,-149.2833,23.93,71,96,6.39,PF,1719256619
110,noosa heads,-26.3833,153.15,15.06,70,52,3.16,AU,1719256410
111,mount isa,-20.7333,139.5,5.87,65,84,0.0,AU,1719256620
112,campos sales,-7.0744,-40.3761,31.76,28,34,5.98,BR,1719256620
113,vavoua,7.3819,-6.4778,27.03,70,100,2.36,CI,1719256620
114,jamestown,42.097,-79.2353,25.29,49,0,3.6,US,1719256621
115,boryeong,36.3493,126.5977,19.98,89,100,1.02,KR,1719256621
116,anyksciai,55.5256,25.1026,16.36,89,54,1.92,LT,1719256621
117,revda,56.801,59.9303,13.54,96,100,1.33,RU,1719256525
118,margate,51.3813,1.3862,20.39,71,0,3.34,GB,1719256622
119,minas de marcona,-15.2119,-75.1103,17.63,56,0,7.08,PE,1719256622
120,pariaman,-0.619,100.12,26.03,92,45,2.03,ID,1719256623
121,kuching,1.55,110.3333,28.9,96,40,0.45,MY,1719256623
122,den helder,52.9599,4.7593,21.65,77,0,3.6,NL,1719256623
123,ataq,14.5377,46.8319,28.05,63,100,3.89,YE,1719256624
124,keflavik,64.0049,-22.5624,10.95,76,75,9.26,IS,1719256624
125,olinda,-8.0089,-34.8553,26.85,78,40,4.63,BR,1719256624
126,bethel,41.3712,-73.414,25.2,59,75,8.23,US,1719256625
127,bilibino,68.0546,166.4372,12.01,44,1,1.73,RU,1719256625
128,porto torres,40.835,8.3972,21.1,80,89,2.4,IT,1719256625
129,ponta delgada,37.7333,-25.6667,21.4,83,75,7.2,PT,1719256625
130,brookings,44.3114,-96.7984,31.21,70,0,7.2,US,1719256626
131,talnakh,69.4865,88.3972,12.53,89,100,0.5,RU,1719256626
132,kidal,18.4411,1.4078,33.36,31,100,10.93,ML,1719256626
133,les avirons,-21.2418,55.3394,20.05,78,75,6.69,RE,1719256626
134,katabu,-4.9333,122.5167,22.86,96,48,1.17,ID,1719256627
135,grand falls-windsor,48.9332,-55.6649,13.85,91,100,2.23,CA,1719256627
136,itaituba,-4.2761,-55.9836,35.09,43,20,4.12,BR,1719256627
137,hovd,48.0056,91.6419,20.98,42,6,2.72,MN,1719256627
138,krasnyy chikoy,50.3643,108.7512,12.47,94,98,0.81,RU,1719256628
139,olyokminsk,60.3736,120.4264,13.57,72,31,1.7,RU,1719256628
140,tarawa,1.419,172.984,29.05,79,20,3.6,KI,1719256628
141,puerto maldonado,-12.6,-69.1833,33.22,55,40,2.57,PE,1719256629
142,codrington,-38.2667,141.9667,8.54,78,100,6.37,AU,1719256629
143,maragogi,-9.0122,-35.2225,25.55,83,6,4.14,BR,1719256629
144,kaa-khem,51.6833,94.7333,19.42,58,0,2.01,RU,1719256629
145,rafsanjan,30.4067,55.9939,31.09,27,39,3.22,IR,1719256630
146,ramotswa,-24.8716,25.8699,12.79,56,0,1.26,BW,1719256630
147,katsuren-haebaru,26.3369,127.8719,28.43,91,20,4.12,JP,1719256630
148,mount gambier,-37.8333,140.7667,7.03,95,100,3.48,AU,1719256630
149,sidney,-33.8679,151.2073,9.66,88,0,3.09,AU,1719256631
150,longyearbyen,78.2186,15.6401,9.91,66,0,3.09,SJ,1719256631
151,eureka,40.8021,-124.1637,28.15,77,16,0.89,US,1719256595
152,atafu village,-8.5421,-172.5159,28.58,73,100,11.05,TK,1719256631
153,konnur,16.2,74.75,24.26,81,99,8.32,IN,1719256632
154,happy valley-goose bay,53.3168,-60.3315,14.17,82,100,4.63,CA,1719256549
155,whitehorse,60.7161,-135.0538,19.5,40,40,3.6,CA,1719256632
156,shimokizukuri,40.8061,140.3861,21.4,92,95,2.22,JP,1719256632
157,darnah,32.767,22.6367,24.76,86,0,6.13,LY,1719256633
158,midoun,33.8081,10.9923,24.92,83,5,10.29,TN,1719256633
159,badger,64.8,-147.5333,19.14,52,75,2.06,US,1719256633
160,remire-montjoly,4.9167,-52.2667,30.02,79,40,4.63,GF,1719256633
161,san pedro pochutla,15.7333,-96.4667,28.21,71,99,1.67,MX,1719256634
162,san patricio,28.017,-97.5169,34.53,54,66,3.77,US,1719256634
163,sydney,-33.8679,151.2073,9.66,89,0,3.09,AU,1719256304
164,country club estates,31.2127,-81.4643,35.56,57,40,5.66,US,1719256634
165,lorengau,-2.0226,147.2712,27.77,81,98,3.04,PG,1719256635
166,paraty,-23.2178,-44.7131,31.53,39,0,0.77,BR,1719256635
167,fort st. john,56.2499,-120.8529,9.94,93,100,5.14,CA,1719256349
168,north bay,46.3168,-79.4663,27.19,44,20,4.63,CA,1719256636
169,wanning,18.8003,110.3967,27.08,90,100,3.51,CN,1719256636
170,nar'yan-mar,67.6713,53.087,7.83,95,100,9.63,RU,1719256636
171,aasiaat,68.7098,-52.8699,2.8,87,97,4.2,GL,1719256636
172,new norfolk,-42.7826,147.0587,5.4,87,100,0.85,AU,1719256637
173,turpan,42.9333,89.1667,37.98,10,0,1.81,CN,1719256637
174,tsiombe,-25.3,45.4833,19.51,67,10,5.66,MG,1719256637
175,berdigestyakh,62.0989,126.6992,14.25,64,90,2.49,RU,1719256638
176,dudinka,69.4058,86.1778,10.7,84,100,4.86,RU,1719256638
177,bawku,11.0616,-0.2417,31.07,54,100,4.72,GH,1719256638
178,sao joao da barra,-21.6403,-41.0511,29.05,78,3,6.57,BR,1719256638
179,san matias,-16.3667,-58.4,37.03,24,20,2.26,BO,1719256639
180,maun,-19.9833,23.4167,17.98,45,0,4.12,BW,1719256639
181,arraial do cabo,-22.9661,-42.0278,31.98,58,0,4.12,BR,1719256639
182,loushanguan,28.1375,106.82,17.98,93,100,1.16,CN,1719256639
183,nemuro,43.3236,145.575,11.21,100,100,1.14,JP,1719256640
184,at-bashi,41.1702,75.8106,11.86,84,52,0.99,KG,1719256640
185,maceio,-9.6658,-35.7353,26.69,83,75,5.14,BR,1719256640
186,mahina,-17.5065,-149.489,24.87,69,100,3.6,PF,1719256606
187,tazovsky,67.4667,78.7,13.13,85,97,5.98,RU,1719256641
188,kayangel,8.0823,134.7173,29.03,80,100,5.53,PW,1719256641
189,sychevka,55.8252,34.2736,14.18,81,96,1.85,RU,1719256641
190,sinjai,-5.1241,120.253,23.59,89,67,1.05,ID,1719256642
191,saint croix,17.7397,-64.7388,31.25,74,20,7.72,VI,1719256642
192,susuman,62.7833,148.1667,14.3,61,82,1.73,RU,1719256642
193,east london,-33.0153,27.9116,19.18,84,5,2.21,ZA,1719256642
194,luderitz,-26.6481,15.1594,17.76,61,1,7.01,NA,1719256643
195,alaghsas,17.0187,8.0168,35.87,16,1,2.35,NE,1719256643
196,bastia,42.6667,9.3333,20.63,80,75,2.06,FR,1719256643
197,syas'stroy,60.1367,32.5691,12.22,69,5,1.42,RU,1719256643
198,crane,31.3974,-102.3501,34.6,35,0,7.46,US,1719256644
199,chinchilla,-26.75,150.6333,8.34,99,56,3.75,AU,1719256644
200,dakhla,23.6848,-15.958,22.01,73,0,9.26,EH,1719256644
201,xuchang,34.0167,113.8167,24.38,38,0,2.51,CN,1719256644
202,port macquarie,-31.4333,152.9167,7.82,99,18,1.34,AU,1719256645
203,port lincoln,-34.7333,135.8667,9.45,87,100,5.96,AU,1719256645
204,saipan,15.1355,145.701,28.39,78,0,5.14,MP,1719256645
205,skovorodino,53.9833,123.9167,16.41,68,73,0.71,RU,1719256645
206,watertown,42.3709,-71.1828,27.84,52,75,7.72,US,1719256646
207,fort bragg,35.139,-79.006,35.08,56,20,6.69,US,1719256646
208,vanino,49.0869,140.2543,7.36,97,100,0.92,RU,1719256646
209,kajuru,10.3192,7.6892,20.16,89,100,0.65,NG,1719256647
210,gwaram,11.2764,9.8858,32.04,43,100,3.73,NG,1719256647
211,phan rang-thap cham,11.5667,108.9833,24.68,93,100,1.16,VN,1719256647
212,kristiansund,63.1115,7.732,21.03,55,0,7.2,NO,1719256647
213,port douglas,-16.4833,145.4667,20.56,76,88,2.35,AU,1719256648
214,cockburn town,21.4612,-71.1419,28.65,80,100,7.26,TC,1719256648
215,boke,10.9409,-14.2967,26.83,88,100,2.36,GN,1719256648
216,iowa falls,42.5225,-93.2513,32.13,55,0,8.23,US,1719256649
217,vorgashor,67.5833,63.95,12.7,59,70,5.74,RU,1719256649
218,serhiyivka,46.0272,30.3768,22.62,70,76,4.91,UA,1719256649
219,ancud,-41.8697,-73.8203,8.84,72,1,2.44,CL,1719256650
220,lebu,-37.6167,-73.65,9.53,72,0,3.46,CL,1719256650
221,sola,-13.8833,167.55,26.71,85,49,7.63,VU,1719256650
222,fale old settlement,-9.3852,-171.2468,28.23,71,86,11.17,TK,1719256650
223,kaihua,23.3687,104.28,18.15,96,100,2.07,CN,1719256651
224,alofi,-19.0595,-169.9187,18.94,94,75,0.51,NU,1719256651
225,east ballina,-28.8667,153.5833,9.89,93,6,3.13,AU,1719256651
226,sao gabriel da cachoeira,-0.1303,-67.0892,30.89,62,20,2.06,BR,1719256651
227,fedorovka,53.6314,62.7078,15.43,82,74,4.66,KZ,1719256652
228,bandarbeyla,9.4942,50.8122,25.17,85,100,12.57,SO,1719256652
229,oruro,-17.9833,-67.15,17.27,36,20,5.14,BO,1719256652
230,bubaque,11.2833,-15.8333,27.12,85,100,5.42,GW,1719256652
231,eirunepe,-6.6603,-69.8736,30.41,58,99,1.0,BR,1719256653
232,yigo village,13.5361,144.8886,27.16,88,75,6.17,GU,1719256653
233,hammerfest,70.6634,23.6821,11.25,82,75,1.03,NO,1719256653
234,san jeronimo de juarez,17.1333,-100.4667,29.46,70,99,3.47,MX,1719256653
235,sai kung,22.3822,114.2728,30.16,79,100,2.3,CN,1719256654
236,kapuskasing,49.4169,-82.4331,29.05,28,75,7.2,CA,1719256654
237,brisas de zicatela,15.8369,-97.0419,30.29,70,75,4.63,MX,1719256654
238,viedma,-40.8135,-62.9967,7.25,62,100,5.24,AR,1719256655
239,weno,7.4515,151.8468,28.44,81,100,8.69,FM,1719256655
240,kurmuk,10.55,34.2833,22.69,77,63,1.47,SD,1719256655
241,krasnyy kut,50.95,46.9667,17.73,64,26,3.13,RU,1719256655
242,bonthe,7.5264,-12.505,25.99,86,100,4.54,SL,1719256656
243,pisco,-13.7,-76.2167,17.03,88,100,3.6,PE,1719256656
244,balsas,-7.5325,-46.0356,35.34,25,29,3.01,BR,1719256657
245,erenhot,43.6475,111.9767,21.27,25,0,3.26,CN,1719256657
246,igarka,67.4667,86.5833,19.16,71,95,3.57,RU,1719256657
247,usogorsk,63.4106,48.6872,7.53,89,100,4.15,RU,1719256657
248,mount pearl,47.5166,-52.7813,17.47,96,100,9.26,CA,1719256658
249,burutu,5.3509,5.5076,25.45,89,100,3.21,NG,1719256658
250,punta arenas,-53.15,-70.9167,0.06,80,75,5.66,CL,1719256658
251,gizo,-8.103,156.8419,27.76,81,50,3.54,SB,1719256659
252,saint-joseph,-21.3667,55.6167,21.21,81,26,6.84,RE,1719256659
253,ust-nera,64.5667,143.2,16.95,76,100,2.06,RU,1719256659
254,san rafael del sur,11.8485,-86.4384,31.17,64,93,2.95,NI,1719256659
255,vilyuchinsk,52.9306,158.4028,7.15,89,11,0.31,RU,1719256660
256,salamina,37.9643,23.4965,29.37,52,0,1.03,GR,1719256660
257,baruun-urt,46.6806,113.2792,16.28,50,8,1.67,MN,1719256660
258,rivera,-30.9053,-55.5508,11.76,66,0,4.73,UY,1719256661
259,ada,43.4166,-116.1262,30.68,21,0,5.36,US,1719256661
260,marsh harbour,26.5412,-77.0636,28.62,75,89,7.56,BS,1719256542
261,catalao,-18.1658,-47.9464,28.58,27,0,1.92,BR,1719256661
262,mejit,10.2753,170.8646,27.87,75,100,9.15,MH,1719256662
263,itoman,26.1247,127.6694,28.43,94,40,4.12,JP,1719256662
264,zhanaozen,43.3,52.8,24.91,46,0,3.2,KZ,1719256662
265,kibre mengist,5.8833,38.9833,13.91,93,100,1.2,ET,1719256663
266,galle,6.0367,80.217,26.95,84,100,5.99,LK,1719256591
267,kyshtovka,56.555,76.6271,19.49,93,100,3.44,RU,1719256663
268,manacapuru,-3.2997,-60.6206,28.95,69,79,0.44,BR,1719256663
269,contamana,-7.3333,-75.0167,35.08,37,1,1.46,PE,1719256664
270,saint-felicien,48.6501,-72.4491,27.28,38,75,2.06,CA,1719256664
271,egilsstadir,65.2653,-14.3948,12.95,54,0,7.2,IS,1719256664
272,katsuura,35.1333,140.3,22.69,94,94,6.18,JP,1719256664
273,otuzco,-7.9,-78.5833,18.59,35,1,2.9,PE,1719256665
274,kondopoga,62.2057,34.2614,14.82,77,97,1.86,RU,1719256665
275,blythe,33.6103,-114.5964,41.25,22,0,5.14,US,1719256661
276,uturoa,-16.7333,-151.4333,24.82,67,100,6.77,PF,1719256665
277,kasangulu,-4.5911,15.1708,25.03,66,100,1.91,CD,1719256666
278,bathsheba,13.2167,-59.5167,31.34,74,40,10.29,BB,1719256666
279,enewetak,11.3474,162.3373,27.8,81,60,8.98,MH,1719256666
280,sovetskaya gavan',48.9723,140.2878,7.65,97,100,2.24,RU,1719256667
281,lisala,2.15,21.5167,23.25,85,41,0.91,CD,1719256667
282,saint-philippe,-21.3585,55.7679,21.77,82,55,6.47,RE,1719256667
283,nuuk,64.1835,-51.7216,6.6,65,100,4.02,GL,1719256668
284,dwarka,22.2394,68.9678,29.19,86,100,7.07,IN,1719256668
285,malango,-2.9627,119.9001,18.46,100,32,0.63,ID,1719256668
286,celestun,20.8667,-90.4,26.65,85,97,1.67,MX,1719256669
287,sept-iles,50.2001,-66.3821,20.29,68,75,5.66,CA,1719256669
288,stanley,54.868,-1.6985,22.93,66,40,1.54,GB,1719256669
289,bafra,41.5678,35.9069,20.4,93,0,1.86,TR,1719256669
290,pemangkat,1.1667,108.9667,26.96,82,95,1.59,ID,1719256670
291,ghat,24.9647,10.1728,37.57,10,5,5.33,LY,1719256670
292,tazacorte,28.629,-17.9293,22.3,86,40,6.69,ES,1719256670
293,at taj,24.2049,23.2857,31.86,14,0,4.66,LY,1719256671
294,ilulissat,69.2167,-51.1,6.01,75,75,2.57,GL,1719256671
295,hithadhoo,-0.6,73.0833,28.63,76,0,3.96,MV,1719256671
296,ujae,8.9322,165.7642,28.16,82,100,7.5,MH,1719256671
297,tshabong,-26.05,22.45,14.09,50,0,4.01,BW,1719256672
298,ilha de mocambique,-15.0342,40.7358,25.53,66,10,6.41,MZ,1719256672
299,port moresby,-9.4431,147.1797,24.48,95,100,1.28,PG,1719256672
300,emerald,-23.5333,148.1667,10.14,92,0,3.46,AU,1719256673
301,kismayo,-0.3582,42.5454,25.72,78,89,8.42,SO,1719256673
302,shingu,33.7333,135.9833,23.4,95,100,2.01,JP,1719256673
303,otsuki,35.6,138.9333,23.35,95,53,1.26,JP,1719256674
304,klyuchi,52.2667,79.1667,20.92,87,36,1.88,RU,1719256674
305,westerland,54.9079,8.3033,17.79,77,0,3.09,DE,1719256674
306,buka,40.8108,69.1986,24.48,41,0,1.61,UZ,1719256674
307,fisterra,42.9049,-9.2629,24.45,88,39,10.33,ES,1719256675
308,kununurra,-15.7667,128.7333,9.99,81,0,0.0,AU,1719256675
309,castillos,-34.1667,-53.8333,9.68,64,99,5.06,UY,1719256675
310,flying fish cove,-10.4217,105.6791,25.82,78,100,4.63,CX,1719256676
311,al mijlad,11.0333,27.7333,31.5,43,77,6.64,SD,1719256676
312,talpa de allende,20.3833,-104.8167,23.88,84,100,1.05,MX,1719256676
313,selebi-phikwe,-21.979,27.8498,15.92,66,92,4.35,BW,1719256676
314,taco pozo,-25.6167,-63.2833,13.39,42,100,4.06,AR,1719256677
315,reggane,26.7158,0.1714,41.19,6,0,2.79,DZ,1719256677
316,rikaze,29.25,88.8833,9.72,89,100,3.4,CN,1719256677
317,miquelon,47.0975,-56.3814,12.0,99,100,10.89,PM,1719256677
318,basse santa su,13.31,-14.2137,37.15,34,88,2.82,GM,1719256678
319,curuca,-0.7289,-47.8481,26.79,95,90,2.06,BR,1719256678
320,camana,-16.6228,-72.7111,18.01,81,48,3.82,PE,1719256678
321,wotho,10.1657,166.0102,28.21,79,42,9.11,MH,1719256679
322,trairi,-3.2778,-39.2689,27.16,75,84,5.0,BR,1719256679
323,agas,46.4833,26.2167,16.33,96,93,1.18,RO,1719256679
324,molchanovo,57.5817,83.7692,18.96,80,1,1.84,RU,1719256679
325,qarazhal,48.0078,70.7903,20.18,47,100,3.79,KZ,1719256680
326,kenora,49.8167,-94.4337,25.54,57,40,8.23,CA,1719256680
327,igrim,63.1906,64.4162,18.69,96,100,3.12,RU,1719256680
328,palamos,41.8484,3.1291,25.72,46,0,1.34,ES,1719256680
329,kargasok,59.0556,80.8572,20.52,81,15,3.12,RU,1719256681
330,antsiranana,-12.2787,49.2917,24.34,63,96,6.85,MG,1719256681
331,taksimo,56.3444,114.8794,17.11,67,45,0.58,RU,1719256681
332,tuy hoa,13.0833,109.3,25.56,82,100,3.81,VN,1719256682
333,dawei,14.0833,98.2,25.28,97,100,6.82,MM,1719256683
334,gadzhiyevo,69.2551,33.3362,9.31,90,98,4.98,RU,1719256683
335,lompoc,34.6391,-120.4579,28.96,53,0,4.12,US,1719256684
336,ola,59.5833,151.2833,7.63,91,99,1.45,RU,1719256684
337,naze,28.3667,129.4833,25.51,89,62,4.05,JP,1719256684
338,griffith,41.5284,-87.4237,31.64,55,75,3.09,US,1719256685
339,abha,18.2164,42.5053,23.9,68,0,2.06,SA,1719256685
340,hirara,24.8,125.2833,28.15,94,20,2.57,JP,1719256685
341,chernyshevskiy,63.0128,112.4714,13.03,68,77,0.22,RU,1719256686
342,zelezniki,46.2333,14.1667,22.85,88,100,0.57,SI,1719256686
343,kapa'a,22.0752,-159.319,27.99,88,100,7.72,US,1719256686
344,port saint john's,-31.6229,29.5448,19.71,50,0,2.13,ZA,1719256686
345,vilyuysk,63.7553,121.6247,15.14,79,96,2.47,RU,1719256687
346,santa ana,33.7456,-117.8678,38.83,36,40,4.63,US,1719256356
347,hasaki,35.7333,140.8333,24.05,92,65,1.89,JP,1719256687
348,al fuwayliq,26.4432,43.2534,32.61,14,3,5.85,SA,1719256688
349,menongue,-14.6585,17.691,13.98,43,4,2.3,AO,1719256688
350,turkestan,43.3333,68.25,25.89,28,0,5.59,KZ,1719256688
351,bom jardim,-7.7958,-35.5872,25.45,71,100,5.2,BR,1719256689
352,guerrero negro,27.9769,-114.0611,25.51,59,16,5.66,MX,1719256689
353,hacienda huancane,-15.8222,-70.8856,10.9,23,0,2.44,PE,1719256689
354,inongo,-1.95,18.2667,24.44,66,26,3.33,CD,1719256689
355,zeya,53.75,127.2667,13.78,83,8,1.06,RU,1719256690
356,newman,37.3138,-121.0208,37.35,28,0,1.79,US,1719256690
357,fortuna,40.5982,-124.1573,20.19,78,20,3.09,US,1719256690
358,sitka,57.0531,-135.33,12.94,82,75,0.0,US,1719256690
359,saudarkrokur,65.7461,-19.6394,11.24,62,99,3.68,IS,1719256691
360,rawson,-43.3002,-65.1023,5.87,56,8,3.3,AR,1719256691
361,kungur,57.4368,56.9593,12.47,98,100,6.15,RU,1719256691
362,waingapu,-9.6567,120.2641,22.64,80,100,3.34,ID,1719256692
363,labrador city,52.9463,-66.9114,18.99,37,40,8.05,CA,1719256692
364,ndele,8.4109,20.6473,22.66,90,99,0.16,CF,1719256692
365,yuzhno-kurilsk,44.0306,145.8556,9.1,99,100,4.18,RU,1719256692
366,kota kinabalu,5.9749,116.0724,25.99,83,20,3.09,MY,1719256693
367,manay,7.215,126.5397,23.88,88,100,2.01,PH,1719256693
368,vila velha,-20.3297,-40.2925,29.98,99,20,8.23,BR,1719256694
369,kerikeri,-35.2268,173.9474,11.62,94,56,0.45,NZ,1719256566
370,whangarei,-35.7317,174.3239,9.38,98,51,2.52,NZ,1719256694
371,prado,-17.3411,-39.2208,25.29,73,0,2.65,BR,1719256694
372,sipalay,9.75,122.5,24.9,91,100,1.97,PH,1719256695
373,ulundi,-28.3352,31.4162,14.11,64,0,1.7,ZA,1719256695
374,craig,40.5153,-107.5464,31.97,20,0,3.09,US,1719256695
375,dodge city,37.7528,-100.0171,37.05,42,0,8.23,US,1719256695
376,singa,13.15,33.9333,31.97,44,51,3.49,SD,1719256696
377,arkalyk,50.2486,66.9114,17.33,59,28,6.64,KZ,1719256696
378,general cabrera,-32.8131,-63.8724,10.01,35,100,3.46,AR,1719256696
379,saint-francois,46.4154,3.9054,23.69,66,0,2.06,FR,1719256696
380,chibougamau,49.9168,-74.3659,25.79,34,40,6.17,CA,1719256697
381,leua,48.2156,18.6071,19.71,75,0,1.83,SK,1719256697
382,senillosa,-39.0,-68.4167,8.88,52,7,3.52,AR,1719256697
383,mirny,62.5353,113.9611,13.33,72,72,0.05,RU,1719256697
384,great bend,38.3645,-98.7648,37.07,32,0,10.8,US,1719256609
385,superior,46.7208,-92.1041,25.27,78,40,4.12,US,1719256698
386,kone,-21.0595,164.8658,19.09,89,13,1.94,NC,1719256698
387,alo,7.4178,6.7371,26.36,89,100,2.0,NG,1719256699
388,nova sintra,14.8667,-24.7167,23.29,81,25,8.0,CV,1719256699
389,kapoeta,4.7717,33.5903,26.99,55,100,2.73,SS,1719256699
390,xichang,27.8964,102.2634,17.36,70,99,0.65,CN,1719256699
391,alice springs,-23.7,133.8833,3.75,87,0,3.09,AU,1719256700
392,iskushuban,10.2837,50.23,33.14,33,100,9.13,SO,1719256700
393,gisborne,-38.6533,178.0042,12.52,92,100,4.96,NZ,1719256700
394,huntsville,34.7304,-86.5861,34.53,42,0,1.34,US,1719256478
395,kyzyl,51.7,94.45,20.37,52,3,2.54,RU,1719256701
396,north bend,43.4065,-124.2243,24.02,67,0,8.23,US,1719256701
397,clarinda,40.7419,-95.0383,34.18,62,0,6.17,US,1719256701
398,caleta de carquin,-11.0925,-77.6267,19.43,73,26,4.47,PE,1719256702
399,al bawiti,28.3492,28.8659,33.28,18,0,4.42,EG,1719256702
400,putina,-15.4667,-69.4333,10.99,51,33,2.74,PE,1719256702
401,tolanaro,-25.0319,46.9987,21.04,83,40,4.12,MG,1719256702
402,buala,-8.145,159.5921,26.97,85,49,4.31,SB,1719256703
403,brandfort,-28.7001,26.4597,6.67,49,0,1.44,ZA,1719256703
404,key west,24.5557,-81.7826,31.0,72,75,4.12,US,1719256439
405,san sebastian de la gomera,28.0916,-17.1133,24.65,73,0,3.6,ES,1719256703
406,cole harbour,44.6724,-63.4751,19.66,95,100,6.17,CA,1719256704
407,nantucket,41.2835,-70.0995,26.16,79,0,7.72,US,1719256665
408,plaza huincul,-38.926,-69.2086,5.64,10,14,4.04,AR,1719256704
409,belmonte,-15.8631,-38.8828,25.49,73,37,2.4,BR,1719256704
410,rechka-vydrino,51.485,104.8461,13.09,82,8,2.33,RU,1719256705
411,el nido,11.1858,119.3956,27.64,82,100,3.3,PH,1719256705
412,gornozavodsk,58.3758,58.3211,14.11,95,44,1.05,RU,1719256706
413,smithers,54.7804,-127.1743,14.18,62,100,5.66,CA,1719256455
414,mogadishu,2.0371,45.3438,25.76,82,52,8.75,SO,1719256706
415,songling,31.1933,120.7176,22.44,94,100,2.28,CN,1719256707
416,niafunke,15.9322,-3.9906,30.16,44,100,11.44,ML,1719256707
417,rawlins,41.7911,-107.2387,30.2,15,0,4.63,US,1719256707
418,vila franca do campo,37.7167,-25.4333,21.23,88,97,4.05,PT,1719256707
419,yanagawa,33.1667,130.4,22.99,88,100,2.51,JP,1719256708
420,mournies,35.4764,24.0092,38.04,69,0,3.09,GR,1719256708
421,marat,25.0701,45.4615,35.47,9,6,4.38,SA,1719256708
422,chachapoyas,-6.2317,-77.869,21.3,42,18,2.87,PE,1719256708
423,la ronge,55.1001,-105.2842,17.14,72,100,6.17,CA,1719256709
424,deqen,29.9618,90.7188,12.56,67,100,0.98,CN,1719256710
425,mbulu,-3.85,35.5333,12.48,65,7,3.23,TZ,1719256710
426,llanes,43.4198,-4.7549,19.34,85,0,4.88,ES,1719256710
427,gamba,-2.65,10.0,21.81,91,68,2.9,GA,1719256710
428,voinjama,8.4219,-9.7478,22.72,97,95,1.38,LR,1719256711
429,howrah,22.5892,88.3103,30.0,89,40,5.66,IN,1719256711
430,panjab,34.388,67.0233,11.33,59,68,2.33,AF,1719256711
431,aromashevo,56.8602,68.6375,15.16,94,20,4.06,RU,1719256711
432,washington,47.5001,-120.5015,24.25,34,13,2.5,US,1719256712
433,shakawe,-18.3667,21.85,14.79,41,0,2.83,BW,1719256712
434,villa angela,-27.5738,-60.7153,14.87,37,100,4.51,AR,1719256712
435,arkhangel'sk,64.5401,40.5433,11.06,82,20,2.0,RU,1719256713
436,wuhai,39.6647,106.8122,22.11,24,3,2.8,CN,1719256713
437,al ghayzah,16.2079,52.176,28.96,82,100,3.89,YE,1719256713
438,oriximina,-1.7656,-55.8661,32.22,48,100,3.25,BR,1719256714
439,bondoukou,8.0333,-2.8,23.64,92,99,1.87,CI,1719256714
440,dingcheng,32.1272,115.0394,24.19,76,100,0.83,CN,1719256714
441,lospalos,-8.5186,127.0025,20.86,89,93,2.77,TL,1719256714
442,sao jose da coroa grande,-8.8978,-35.1478,26.19,79,6,4.58,BR,1719256715
443,inirida,3.8653,-67.9239,28.29,85,36,0.71,CO,1719256715
444,borongan,11.6333,125.4333,26.04,89,89,2.17,PH,1719256715
445,carnarvon,-24.8667,113.6333,16.16,49,0,6.55,AU,1719256716
446,mil'kovo,55.6078,37.7956,17.27,68,100,3.53,RU,1719256716
447,altai,46.3722,96.2583,17.98,38,100,3.91,MN,1719256716
448,red hill,33.9996,-79.2581,35.1,42,100,6.01,US,1719256717
449,morant bay,17.8815,-76.4093,31.79,76,25,5.53,JM,1719256717
450,eagle point,42.4726,-122.8028,27.34,37,0,1.54,US,1719256717
451,palmer,42.1584,-72.3287,25.75,56,75,4.12,US,1719256717
452,gutao,37.2025,112.1781,17.92,47,0,2.38,CN,1719256718
453,sinop,41.7711,34.8709,18.43,79,0,1.58,TR,1719256718
454,huarmey,-10.0681,-78.1522,20.76,69,1,4.54,PE,1719256718
455,konarka,19.9,86.1167,29.22,82,100,6.2,IN,1719256719
456,kallupatti,9.7167,77.8667,29.35,60,100,2.66,IN,1719256719
457,onega,63.9061,38.1404,11.21,80,31,1.31,RU,1719256719
458,quepos,9.4236,-84.1652,28.51,78,98,2.24,CR,1719256719
459,porto seguro,-16.4497,-39.0647,26.29,78,75,2.57,BR,1719256720
460,pinheiral,-22.5128,-44.0006,30.16,34,0,1.05,BR,1719256720
461,qamdo,31.1667,97.2333,8.75,73,42,1.01,CN,1719256720
462,birao,10.2849,22.7882,23.0,86,85,1.53,CF,1719256721
463,kargil,34.5667,76.1,11.35,47,29,3.47,IN,1719256721
464,astara,38.5,48.6667,21.99,95,100,0.73,AZ,1719256721
465,aitape,-3.1374,142.3475,25.52,86,100,2.55,PG,1719256721
466,aur,8.1499,171.1687,28.25,81,100,8.58,MH,1719256722
467,pocito,-31.6833,-68.5833,11.56,21,22,7.48,AR,1719256722
468,haiku-pauwela,20.9219,-156.3051,26.79,76,20,8.75,US,1719256722
469,ofunato,39.0717,141.7167,19.8,89,100,2.72,JP,1719256723
470,mitchell,43.7094,-98.0298,32.99,58,0,4.12,US,1719256723
471,cherdyn',60.403,56.4787,11.01,98,100,4.37,RU,1719256723
472,naxos,37.1056,25.3764,26.28,64,0,1.79,GR,1719256723
473,richards bay,-28.783,32.0377,19.83,78,0,5.42,ZA,1719256724
474,suva,-18.1416,178.4415,21.71,100,75,1.03,FJ,1719256724
475,sesheke,-17.4759,24.2968,15.23,50,0,2.64,ZM,1719256724
476,tralee,52.2704,-9.7026,18.87,84,74,2.69,IE,1719256725
477,guilin,25.2819,110.2864,25.06,97,100,2.42,CN,1719256725
478,queenstown,-31.8976,26.8753,12.67,46,0,2.79,ZA,1719256725
479,marka,1.7159,44.7717,25.15,83,76,7.93,SO,1719256726
480,kirklareli,41.7351,27.2252,19.01,69,0,3.27,TR,1719256726
481,aras-asan,8.8908,126.3033,24.14,93,100,1.43,PH,1719256726
482,sisimiut,66.9395,-53.6735,3.88,87,100,3.09,GL,1719256727
483,murzuq,25.9155,13.9184,34.25,11,0,4.18,LY,1719256727
484,polyarnyy,69.1989,33.4478,9.11,92,100,5.11,RU,1719256727
485,nizhneangarsk,55.7833,109.55,10.15,89,100,0.66,RU,1719256727
486,pandan,14.0453,124.1694,26.43,86,100,1.19,PH,1719256728
487,fuglafjordur,62.244,-6.814,9.26,96,100,5.43,FO,1719256728
488,pignon,19.3333,-72.1167,32.09,52,41,0.85,HT,1719256728
489,boundiali,9.5217,-6.4869,26.58,71,100,0.86,CI,1719256728
490,inhambane,-23.865,35.3833,19.99,88,20,1.54,MZ,1719256729
491,mehdia daira de meghila,35.4306,1.7571,27.47,33,100,5.22,DZ,1719256729
492,bamboo flat,11.7,92.7167,25.05,94,100,1.03,IN,1719256729
493,hulan,45.9833,126.6,12.06,92,22,2.64,CN,1719256730
494,peace river,56.2501,-117.286,14.17,94,100,2.57,CA,1719256730
495,khanabad,36.6825,69.1156,27.18,32,20,1.84,AF,1719256730
496,kibale,0.8,31.0667,18.42,67,6,2.2,UG,1719256730
497,haskovo,41.9403,25.5694,23.28,33,13,2.1,BG,1719256731
498,dryden,49.7833,-92.7503,25.16,53,0,7.2,CA,1719256731
499,floro,61.5996,5.0328,20.04,59,0,5.66,NO,1719256731
500,vadso,70.0744,29.7487,12.09,71,75,1.54,NO,1719256731
501,kemise,10.7167,39.8667,23.23,64,78,1.97,ET,1719256732
502,zambezi,-13.5432,23.1047,16.57,38,0,2.88,ZM,1719256732
503,corner brook,48.9667,-57.9484,18.09,92,99,1.62,CA,1719256732
504,puerto baquerizo moreno,-0.9,-89.6,25.55,65,75,4.74,EC,1719256733
505,puerto aysen,-45.4,-72.7,6.08,94,75,1.22,CL,1719256733
506,shache,38.4167,77.2406,25.12,31,100,4.65,CN,1719256733
507,port augusta,-32.5,137.7667,8.06,78,10,3.9,AU,1719256733
508,severo-yeniseyskiy,60.3725,93.0408,12.24,72,3,1.41,RU,1719256734
509,kirakira,-10.4544,161.9205,26.44,88,67,4.3,SB,1719256734
510,klaksvik,62.2266,-6.589,9.51,95,100,6.92,FO,1719256734
511,kayyerkan,69.3786,87.7439,9.15,93,100,3.13,RU,1719256734
512,galesong,-5.3166,119.3661,24.01,83,38,2.49,ID,1719256735
513,golfito,8.639,-83.166,27.14,73,100,2.16,CR,1719256735
514,adiake,5.2863,-3.304,25.16,88,100,3.28,CI,1719256735
515,balao,-2.9167,-79.8167,26.36,74,63,1.81,EC,1719256736
516,carutapera,-1.195,-46.02,27.6,80,13,4.23,BR,1719256736
517,kruisfontein,-34.0033,24.7314,16.05,89,98,3.87,ZA,1719256736
518,tripoli,32.8752,13.1875,30.1,51,0,11.56,LY,1719256736
519,tome acu,-2.4189,-48.1522,31.82,52,82,2.12,BR,1719256737
520,comodoro rivadavia,-45.8667,-67.5,2.92,65,0,3.09,AR,1719256737
521,laguna,38.421,-121.4238,37.83,25,0,4.63,US,1719256737
522,palikir - national government center,6.9248,158.1611,26.41,83,100,2.06,FM,1719256738
523,bardai,11.65,7.2333,23.31,83,100,8.17,NG,1719256738
524,dolbeau-mistassini,48.8763,-72.212,27.26,36,0,2.92,CA,1719256738
525,port blair,11.6667,92.75,25.02,94,100,1.03,IN,1719256738
526,wewak,-3.5534,143.6268,26.01,87,100,2.43,PG,1719256739
527,kailua-kona,19.6406,-155.9956,26.98,92,20,3.6,US,1719256481
528,malvan,16.0667,73.4667,27.74,85,100,7.95,IN,1719256739
529,islampur,26.2667,88.2,29.36,86,100,3.51,IN,1719256740
530,la'ie,21.6477,-157.9253,26.92,76,62,4.92,US,1719256740
531,lubumbashi,-11.6609,27.4794,14.63,53,0,1.89,CD,1719256740
532,leava,-14.3,-178.1667,27.36,65,100,8.26,WF,1719256740
533,collie,-33.3667,116.15,4.14,92,3,0.83,AU,1719256741
534,elko,41.0002,-115.5012,30.59,13,0,6.71,US,1719256741
535,mugia,43.1041,-9.2179,24.53,89,74,9.19,ES,1719256741
536,phang nga,8.4509,98.5298,24.02,94,100,1.03,TH,1719256742
537,keren,15.7778,38.4581,23.34,66,100,2.13,ER,1719256742
538,mwinilunga,-11.7358,24.4293,14.72,51,10,2.05,ZM,1719256742
539,xining,36.6167,101.7667,13.73,58,7,1.08,CN,1719256743
540,tual,-5.6667,132.75,25.83,87,100,6.35,ID,1719256743
541,ulaangom,49.9811,92.0667,21.46,42,17,2.14,MN,1719256743
542,magadan,59.5667,150.8,7.56,93,67,1.24,RU,1719256744
543,pangkalpinang,-2.1333,106.1333,24.7,92,100,0.7,ID,1719256744
544,callao,-12.0667,-77.15,19.29,77,100,3.09,PE,1719256744
545,masterton,-40.9597,175.6575,8.39,99,100,1.32,NZ,1719256745
546,aleg,17.0481,-13.9209,40.04,21,0,4.47,MR,1719256745
547,touros,-5.1989,-35.4608,27.32,77,11,5.02,BR,1719256745
548,kurumkan,54.3,110.3,15.65,82,100,0.82,RU,1719256746
549,san antonio de pale,-1.4014,5.6325,23.56,90,72,3.71,GQ,1719256746
550,golhisar,37.1459,29.5088,25.48,45,61,1.88,TR,1719256746
551,sungai penuh,-2.0833,101.3833,19.05,94,95,1.76,ID,1719256746
552,estevan,49.1334,-102.9842,25.19,50,0,9.26,CA,1719256747
553,punta alta,-38.8759,-62.0736,8.69,57,51,5.86,AR,1719256747
554,fort payne,34.4442,-85.7197,34.57,43,0,5.14,US,1719256747
555,pavlogradka,54.2024,73.5592,18.98,73,10,1.47,RU,1719256747
556,leer,53.2316,7.461,20.56,77,2,3.49,DE,1719256748
557,breitungen,50.7667,10.3333,21.31,81,0,2.52,DE,1719256748
558,cheremukhovo,60.3484,59.9851,15.36,95,43,0.4,RU,1719256748
559,dumka,24.2667,87.25,31.59,66,100,4.23,IN,1719256748
560,twon-brass,4.3151,6.2418,26.85,82,100,5.72,NG,1719256749
561,general villegas,-35.0328,-63.0125,10.07,53,100,3.99,AR,1719256749
562,sechura,-5.5569,-80.8222,24.52,59,0,5.39,PE,1719256749
563,kisanga,-7.4362,37.7034,23.75,55,98,0.68,TZ,1719256750
564,moose jaw,50.4001,-105.5344,24.15,33,40,9.26,CA,1719256750
565,ghadamis,30.1337,9.5007,38.29,6,0,5.74,LY,1719256751
566,shambu,9.5667,37.1,11.78,92,100,1.17,ET,1719256751
567,grajau,-5.8194,-46.1386,34.92,28,83,2.43,BR,1719256751
568,caraballeda,10.6112,-66.8522,32.98,78,41,4.12,VE,1719256752
569,asha,54.9973,57.2722,11.55,99,100,3.64,RU,1719256752
570,utrik,11.2278,169.8474,28.06,77,100,9.36,MH,1719256752
571,ciudad lazaro cardenas,17.9583,-102.2,29.28,70,48,5.04,MX,1719256683
572,harstad,68.799,16.5293,11.2,89,100,8.49,NO,1719256753
573,kingston,17.997,-76.7936,33.98,66,26,8.75,JM,1719256530
574,ak'ordat,15.5486,37.8867,25.85,62,100,5.01,ER,1719256753
575,tarija,-21.5355,-64.7296,21.95,49,75,4.63,BO,1719256753
576,jayapura,-2.5333,140.7,24.66,91,100,2.08,ID,1719256754
577,hanceville,34.0607,-86.7675,36.37,34,2,3.97,US,1719256754
578,mena,51.5217,32.2157,15.61,96,6,3.53,UA,1719256754
